City_ID,City,Country,Lat,Lng,Max Temp,Humidity,Cloudiness,Wind Speed,Current Description
0,Seoul,KR,37.5683,126.9778,49.44,82,0,3.44,clear sky
1,Sinnamary,GF,5.3833,-52.95,77.25,89,97,9.6,overcast clouds
2,Severo-Kurilsk,RU,50.6789,156.125,32.65,87,95,2.3,overcast clouds
3,Hithadhoo,MV,-0.6,73.0833,82.89,73,99,4.5,overcast clouds
4,Inta,RU,66.0317,60.1659,30.49,98,100,11.18,light snow
5,Dikson,RU,73.5069,80.5464,2.44,95,100,14.45,overcast clouds
6,Port Alfred,ZA,-33.5906,26.891,64.8,82,48,3.09,scattered clouds
7,Mumford,GH,5.2618,-0.759,78.21,80,100,5.08,overcast clouds
8,Rikitea,PF,-23.1203,-134.9692,78.57,70,7,14.45,clear sky
9,Trondheim,NO,63.4305,10.3951,44.65,65,15,4.07,few clouds
10,Tasiilaq,GL,65.6145,-37.6368,31.21,98,100,2.37,light snow
11,Tuktoyaktuk,CA,69.4541,-133.0374,15.8,62,0,11.5,clear sky
12,Busselton,AU,-33.65,115.3333,61.7,86,97,5.68,overcast clouds
13,Nikolskoye,RU,59.7035,30.7861,40.8,91,85,3.38,overcast clouds
14,Ahipara,NZ,-35.1667,173.1667,73.99,73,11,9.53,few clouds
15,Mitsamiouli,KM,-11.3847,43.2844,80.83,75,11,4.14,few clouds
16,Kapaa,US,22.0752,-159.319,72.48,87,14,1.01,light rain
17,Vila Velha,BR,-20.3297,-40.2925,76.95,79,20,8.05,few clouds
18,Lebu,CL,-37.6167,-73.65,54.34,92,100,3.13,overcast clouds
19,Albany,US,42.6001,-73.9662,51.93,37,100,5.01,overcast clouds
20,Vaini,TO,-21.2,-175.2,84.36,84,75,10.36,broken clouds
21,Ushuaia,AR,-54.8,-68.3,47.86,66,75,9.22,broken clouds
22,Batemans Bay,AU,-35.7167,150.1833,63.1,67,100,3.71,overcast clouds
23,Avarua,CK,-21.2078,-159.775,82.45,69,80,4.61,broken clouds
24,Humboldt,US,40.6665,-123.9178,45.68,97,100,10.54,moderate rain
25,Kindu,CD,-2.95,25.95,69.75,100,98,2.51,moderate rain
26,Punta Arenas,CL,-53.15,-70.9167,48.31,81,75,12.66,broken clouds
27,Rocha,UY,-34.4833,-54.3333,62.64,80,65,7.54,broken clouds
28,Cherskiy,RU,68.75,161.3,24.1,88,100,6.76,overcast clouds
29,Fort Nelson,CA,58.8053,-122.7002,26.19,43,75,6.91,broken clouds
30,Kavieng,PG,-2.5744,150.7967,85.24,67,94,15.1,overcast clouds
31,Bluff,NZ,-46.6,168.3333,56.8,78,100,6.08,overcast clouds
32,Hilo,US,19.7297,-155.09,80.28,87,96,1.99,overcast clouds
33,San Quintin,MX,30.4833,-115.95,66.99,63,8,22.12,clear sky
34,Bela Vista De Goias,BR,-16.9728,-48.9533,78.15,57,10,4.32,clear sky
35,Kirakira,SB,-10.4544,161.9205,83.3,73,100,5.53,overcast clouds
36,Paita,PE,-5.0892,-81.1144,70.18,76,72,17.74,broken clouds
37,Mapastepec,MX,15.4333,-92.9,89.22,57,16,7.83,few clouds
38,Jalu,LY,29.0331,21.5482,62.73,58,2,13.29,clear sky
39,Ancud,CL,-41.8697,-73.8203,51.22,86,83,6.24,broken clouds
40,Thompson,CA,55.7435,-97.8558,37.56,44,75,8.05,broken clouds
41,Oranjestad,AW,12.524,-70.027,82.35,78,20,25.32,few clouds
42,Henties Bay,NA,-22.116,14.2845,65.34,68,13,3.74,few clouds
43,Arona,ES,28.0996,-16.681,62.82,77,0,16.11,clear sky
44,Cabo San Lucas,MX,22.8909,-109.9124,88.61,48,12,3.0,few clouds
45,Caluquembe,AO,-13.7833,14.6833,59.9,96,70,4.14,broken clouds
46,Arraial Do Cabo,BR,-22.9661,-42.0278,71.46,83,40,2.3,scattered clouds
47,Ribeira Grande,PT,38.5167,-28.7,59.27,69,21,18.63,few clouds
48,Bilibino,RU,68.0546,166.4372,21.02,85,89,1.86,overcast clouds
49,Bredasdorp,ZA,-34.5322,20.0403,58.33,96,10,4.16,clear sky
50,Hermanus,ZA,-34.4187,19.2345,60.8,90,8,11.54,clear sky
51,Iqaluit,CA,63.7506,-68.5145,1.13,71,100,6.91,light snow
52,Muros,ES,42.7762,-9.0603,51.84,79,16,14.81,few clouds
53,Carutapera,BR,-1.195,-46.02,76.98,86,100,4.54,moderate rain
54,Serta,PT,39.8085,-8.0988,51.94,88,35,9.42,scattered clouds
55,Tuatapere,NZ,-46.1333,167.6833,59.94,74,100,2.84,light rain
56,Saint-Philippe,RE,-21.3585,55.7679,76.59,87,31,11.41,scattered clouds
57,Longyearbyen,SJ,78.2186,15.6401,12.04,79,0,5.75,clear sky
58,Padang,ID,-0.9492,100.3543,75.25,87,100,4.41,overcast clouds
59,Rio Gallegos,AR,-51.6226,-69.2181,46.45,81,0,10.36,clear sky
60,Cambridge,CA,43.3601,-80.3127,33.53,96,100,12.66,snow
61,Mazyr,BY,52.0495,29.2456,33.91,95,100,4.61,overcast clouds
62,Lompoc,US,34.6391,-120.4579,74.57,60,75,31.0,broken clouds
63,Tiksi,RU,71.6872,128.8694,3.99,100,100,3.02,overcast clouds
64,Mabaruma,GY,8.2,-59.7833,75.69,80,100,5.79,overcast clouds
65,Souillac,MU,-20.5167,57.5167,79.18,89,40,8.05,scattered clouds
66,Klaksvik,FO,62.2266,-6.589,45.52,91,64,34.23,light rain
67,Faanui,PF,-16.4833,-151.75,81.57,72,9,8.99,clear sky
68,Namibe,AO,-15.1961,12.1522,74.62,76,89,3.13,light rain
69,Saurimo,AO,-9.6608,20.3916,66.04,96,92,4.05,overcast clouds
70,Kodiak,US,57.79,-152.4072,37.54,70,100,12.1,overcast clouds
71,Comodoro Rivadavia,AR,-45.8667,-67.5,55.26,71,0,5.75,clear sky
72,Kayunga,UG,0.7025,32.8886,65.23,97,59,1.23,broken clouds
73,Kingaroy,AU,-26.5333,151.8333,66.24,82,40,5.75,scattered clouds
74,Eureka,US,40.8021,-124.1637,54.75,84,100,5.99,moderate rain
75,Karratha,AU,-20.7377,116.8463,80.22,46,0,17.0,clear sky
76,Pozo Colorado,PY,-23.4923,-58.7972,70.0,55,0,5.75,clear sky
77,Dunedin,NZ,-45.8742,170.5036,65.8,51,98,4.0,overcast clouds
78,Jamestown,US,42.097,-79.2353,35.19,77,100,14.97,snow
79,Victoria,HK,22.2855,114.1577,70.25,85,100,5.99,overcast clouds
80,Dwarka,IN,22.2394,68.9678,79.83,78,6,13.2,clear sky
81,Bilma,NE,18.6853,12.9164,79.2,18,73,13.0,broken clouds
82,Cape Town,ZA,-33.9258,18.4232,61.92,87,0,15.01,clear sky
83,Mecca,SA,21.4267,39.8261,85.24,24,13,1.7,few clouds
84,Provideniya,RU,64.3833,-173.3,32.36,86,100,13.42,light snow
85,Glenwood Springs,US,39.5505,-107.3248,63.63,25,0,12.66,clear sky
86,Porto Velho,BR,-8.7619,-63.9039,75.25,94,75,2.3,light rain
87,Yellowknife,CA,62.456,-114.3525,25.32,36,75,5.75,broken clouds
88,Mahebourg,MU,-20.4081,57.7,79.09,89,40,8.05,scattered clouds
89,Atuona,PF,-9.8,-139.0333,79.88,71,42,17.36,scattered clouds
90,Iquitos,PE,-3.7481,-73.2472,77.04,94,75,4.61,broken clouds
91,Baykit,RU,61.67,96.37,6.75,99,83,3.18,broken clouds
92,New Norfolk,AU,-42.7826,147.0587,56.91,69,100,2.57,overcast clouds
93,Hazorasp,UZ,41.3194,61.0742,58.84,40,100,6.53,overcast clouds
94,Rome,US,34.257,-85.1647,59.31,63,31,3.0,scattered clouds
95,Esperance,AU,-33.8667,121.9,58.84,75,85,11.43,overcast clouds
96,Pevek,RU,69.7008,170.3133,15.71,88,62,4.94,broken clouds
97,Hobart,AU,-42.8794,147.3294,57.25,80,75,5.75,broken clouds
98,Talara,PE,-4.5772,-81.2719,74.16,64,0,16.11,clear sky
99,Joacaba,BR,-27.1781,-51.5047,56.77,95,67,2.82,broken clouds
100,Portland,US,45.5234,-122.6762,52.29,91,100,11.01,moderate rain
101,Codrington,AU,-38.2667,141.9667,57.81,67,100,7.76,overcast clouds
102,Dinan,FR,48.4167,-2.25,47.7,85,83,6.53,broken clouds
103,Husavik,IS,66.0449,-17.3389,34.29,97,100,11.99,overcast clouds
104,Castro,BR,-24.7911,-50.0119,54.91,95,41,4.7,scattered clouds
105,Mataura,NZ,-46.1927,168.8643,56.48,59,100,3.02,light rain
106,Bethel,US,41.3712,-73.414,45.73,66,100,4.0,overcast clouds
107,Kloulklubed,PW,7.0419,134.2556,79.3,76,81,9.24,broken clouds
108,Kendari,ID,-3.945,122.4989,78.71,89,97,2.64,overcast clouds
109,Tigil,RU,57.8,158.6667,26.02,85,95,10.29,overcast clouds
110,Faya,SA,18.3851,42.4509,66.31,36,66,3.94,broken clouds
111,Narsaq,GL,60.9167,-46.05,34.7,67,100,1.19,overcast clouds
112,Port Augusta,AU,-32.5,137.7667,61.54,64,61,14.03,broken clouds
113,Airai,TL,-8.9266,125.4092,63.88,78,93,1.81,overcast clouds
114,Georgetown,MY,5.4112,100.3354,79.95,93,20,3.44,few clouds
115,Khatanga,RU,71.9667,102.5,-1.95,99,91,6.76,overcast clouds
116,Hasaki,JP,35.7333,140.8333,57.6,61,100,13.04,overcast clouds
117,Qaanaaq,GL,77.484,-69.3632,-11.4,84,35,1.1,scattered clouds
118,Oistins,BB,13.0667,-59.5333,78.89,73,40,19.57,scattered clouds
119,Neuquen,AR,-38.9516,-68.0591,66.09,55,0,0.0,clear sky
120,Ishigaki,JP,24.3448,124.1572,69.93,83,97,11.5,overcast clouds
121,Barrow,US,71.2906,-156.7887,11.53,72,1,4.0,clear sky
122,Vila Franca Do Campo,PT,37.7167,-25.4333,59.41,73,81,12.48,broken clouds
123,Laguna,US,38.421,-121.4238,73.49,42,0,9.22,clear sky
124,Otautau,NZ,-46.15,168.0,56.44,72,100,1.32,overcast clouds
125,Ilulissat,GL,69.2167,-51.1,7.74,93,100,7.72,overcast clouds
126,San Cristobal,VE,7.7669,-72.225,75.38,83,99,4.41,overcast clouds
127,Kayseri,TR,38.737,35.4968,68.02,32,75,13.8,light rain
128,Beitbridge,ZW,-22.2167,30.0,64.81,86,28,9.98,scattered clouds
129,Sobolevo,RU,54.4299,31.8996,39.22,90,100,11.72,overcast clouds
130,Simao,CN,22.7886,100.9748,59.13,98,64,2.75,broken clouds
131,Ugoofaaru,MV,5.6667,73.0,83.8,67,100,6.85,overcast clouds
132,Tukrah,LY,32.5341,20.5791,57.06,83,42,13.02,light rain
133,Los Llanos De Aridane,ES,28.6585,-17.9182,64.15,77,100,17.27,overcast clouds
134,Bahir Dar,ET,11.5936,37.3908,70.02,55,96,4.27,overcast clouds
135,Kaitangata,NZ,-46.2817,169.8464,61.45,54,93,3.47,moderate rain
136,Taoudenni,ML,22.6783,-3.9836,80.24,12,3,7.38,clear sky
137,Egvekinot,RU,66.3167,-179.1667,27.79,98,100,4.97,snow
138,Kishanpur,IN,25.65,81.0167,86.16,11,0,1.43,clear sky
139,Aklavik,CA,68.2191,-135.0107,30.2,34,0,11.5,clear sky
140,Graaff-Reinet,ZA,-32.2522,24.5308,57.81,72,4,2.04,clear sky
141,Lorengau,PG,-2.0226,147.2712,84.88,70,100,8.86,overcast clouds
142,Zverinogolovskoye,RU,54.4586,64.8542,43.99,63,85,7.43,overcast clouds
143,Butaritari,KI,3.0707,172.7902,81.79,75,15,12.21,few clouds
144,Lasa,IT,46.6166,10.7002,41.36,90,13,5.44,few clouds
145,Kulu,TR,39.0951,33.0799,50.52,83,13,6.91,few clouds
146,San Pedro Del Pinatar,ES,37.8357,-0.791,63.84,74,0,3.0,clear sky
147,Bowen,AU,-20.0167,148.2333,76.41,78,8,12.33,clear sky
148,Karimganj,IN,24.8667,92.35,71.56,94,7,1.79,clear sky
149,Tubuala,PA,9.5167,-79.0333,80.6,82,93,12.01,overcast clouds
150,West Bay,KY,19.3667,-81.4167,86.07,68,20,8.05,few clouds
151,Mahibadhoo,MV,3.7833,72.9667,83.39,67,100,5.41,overcast clouds
152,Ranong,TH,9.9658,98.6348,77.7,90,65,4.56,broken clouds
153,Belaya Kholunitsa,RU,58.84,50.8528,24.64,99,49,2.64,scattered clouds
154,Pangnirtung,CA,66.1451,-65.7125,-5.8,77,20,11.5,few clouds
155,Puerto Ayora,EC,-0.7393,-90.3518,76.96,83,100,6.58,overcast clouds
156,Amboasary,MG,-25.0333,46.3833,73.22,92,41,5.59,scattered clouds
157,Arman,RU,59.7,150.1667,25.02,87,85,5.59,overcast clouds
158,Fez,MA,34.0372,-4.9998,59.25,72,0,4.61,clear sky
159,Sao Joaquim,BR,-28.2939,-49.9317,49.46,97,89,3.06,overcast clouds
160,Port Blair,IN,11.6667,92.75,81.34,71,96,3.56,overcast clouds
161,Darhan,MN,49.4867,105.9228,49.42,36,43,6.8,scattered clouds
162,Westport,US,41.1415,-73.3579,46.99,63,100,10.0,overcast clouds
163,Mercedes,AR,-34.6515,-59.4307,64.85,66,42,8.79,scattered clouds
164,East London,ZA,-33.0153,27.9116,66.6,84,94,5.7,overcast clouds
165,Saint George,US,37.1041,-113.5841,87.64,7,0,8.99,clear sky
166,Hit,IQ,33.6416,42.8251,76.06,12,66,7.72,broken clouds
167,Kavaratti,IN,10.5669,72.642,83.57,74,50,8.12,scattered clouds
168,Saint-Pierre,RE,-21.3393,55.4781,76.91,80,0,3.44,clear sky
169,Morehead,US,37.2711,-87.1764,52.0,53,100,14.97,overcast clouds
170,Coahuayana,MX,18.7333,-103.6833,85.15,57,73,6.62,broken clouds
171,Talcahuano,CL,-36.7167,-73.1167,58.68,88,75,5.75,broken clouds
172,Suntar,RU,62.1444,117.6319,22.23,83,100,11.68,overcast clouds
173,Chokurdakh,RU,70.6333,147.9167,9.93,92,53,4.18,broken clouds
174,San Isidro,PE,-12.1167,-77.05,65.79,77,0,12.66,clear sky
175,Cidreira,BR,-30.1811,-50.2056,69.3,73,52,16.04,broken clouds
176,Mizdah,LY,31.4451,12.9801,52.61,45,0,5.79,clear sky
177,Trairi,BR,-3.2778,-39.2689,75.36,93,98,6.44,overcast clouds
178,Coueron,FR,47.2151,-1.7217,49.95,62,0,6.91,clear sky
179,Zhezkazgan,KZ,47.8043,67.7144,48.06,82,94,14.36,overcast clouds
180,Port Elizabeth,ZA,-33.918,25.5701,57.09,95,0,3.44,clear sky
181,Da Nang,VN,16.0678,108.2208,76.98,78,75,5.75,broken clouds
182,Margate,GB,51.3813,1.3862,50.7,84,100,1.01,overcast clouds
183,Kaeo,NZ,-35.1,173.7833,70.32,96,26,8.55,scattered clouds
184,Penzance,GB,50.1186,-5.5371,48.31,69,8,13.85,clear sky
185,Berlevag,NO,70.8578,29.0864,40.8,92,100,23.78,overcast clouds
186,Cayenne,GF,4.9333,-52.3333,77.09,1,75,0.0,broken clouds
187,Nanortalik,GL,60.1432,-45.2371,32.74,92,100,9.64,light snow
188,Araripina,BR,-7.5761,-40.4983,69.87,90,87,3.38,overcast clouds
189,Poum,NC,-20.2333,164.0167,78.3,76,5,9.95,clear sky
190,Lamar,US,33.6668,-95.5836,70.65,57,14,10.31,few clouds
191,Fiumicino,IT,41.7675,12.2291,55.0,81,0,2.3,clear sky
192,Sembakung,ID,3.8167,117.25,74.57,98,89,1.81,overcast clouds
193,Ca Mau,VN,9.1769,105.15,79.61,82,85,6.49,overcast clouds
194,Sokoni,TZ,-6.4333,39.55,80.74,80,7,9.84,light rain
195,Ordubad,AZ,38.9059,46.0234,61.84,37,40,3.02,scattered clouds
196,Tautira,PF,-17.7333,-149.15,80.31,74,22,7.07,light rain
197,Kahului,US,20.8947,-156.47,80.96,78,63,18.01,broken clouds
198,Alofi,NU,-19.0595,-169.9187,84.09,79,75,9.22,broken clouds
199,Villa Guerrero,MX,18.8667,-99.65,89.22,24,70,2.28,broken clouds
200,Erdenet,MN,49.0333,104.0833,43.38,41,45,5.75,scattered clouds
201,Talnakh,RU,69.4865,88.3972,14.92,94,100,8.08,light snow
202,Waingapu,ID,-9.6567,120.2641,78.69,87,100,6.91,light rain
203,Fortuna,US,40.5982,-124.1573,53.92,90,40,13.8,moderate rain
204,Grand Gaube,MU,-20.0064,57.6608,79.2,88,58,3.0,broken clouds
205,Gerash,IR,27.6652,54.1371,64.36,23,19,1.63,few clouds
206,Santa Maria,BR,-29.6842,-53.8069,67.3,77,40,3.44,scattered clouds
207,Touros,BR,-5.1989,-35.4608,80.13,77,97,9.17,overcast clouds
208,Sao Filipe,CV,14.8961,-24.4956,71.15,80,27,6.33,scattered clouds
209,Samarinda,ID,-0.5,117.15,75.04,97,100,1.07,overcast clouds
210,Vila Do Maio,CV,15.1333,-23.2167,72.39,81,26,12.21,scattered clouds
211,Dawlatabad,AF,36.4141,64.9053,55.04,83,100,7.4,overcast clouds
212,Nenjiang,CN,49.1833,125.2167,51.01,49,99,10.74,overcast clouds
213,Sabalgarh,IN,26.25,77.4,86.31,14,38,0.87,scattered clouds
214,De-Kastri,RU,51.4667,140.7833,35.6,77,54,7.72,broken clouds
215,Saskylakh,RU,71.9167,114.0833,12.16,94,100,12.71,light snow
216,Dickinson,US,29.4608,-95.0513,81.14,57,0,5.99,clear sky
217,Carnarvon,AU,-24.8667,113.6333,64.47,77,29,9.22,scattered clouds
218,Oussouye,SN,12.485,-16.5469,71.78,73,35,10.29,scattered clouds
219,Mogadishu,SO,2.0371,45.3438,82.26,82,100,9.6,overcast clouds
220,La Ronge,CA,55.1001,-105.2842,37.65,56,75,11.5,broken clouds
221,Bukachacha,RU,52.9833,116.9167,46.89,56,97,5.91,overcast clouds
222,Chuy,UY,-33.6971,-53.4616,63.07,84,7,9.24,clear sky
223,Bandarbeyla,SO,9.4942,50.8122,80.38,79,8,2.3,clear sky
224,Sao Felix Do Xingu,BR,-6.6447,-51.995,74.14,97,100,0.87,moderate rain
225,Diego De Almagro,CL,-26.3667,-70.05,61.63,48,0,4.09,clear sky
226,Komsomolskiy,UZ,40.4272,71.7189,68.72,49,88,9.22,light rain
227,Luanda,AO,-8.8368,13.2343,80.6,83,75,8.05,broken clouds
228,Inhambane,MZ,-23.865,35.3833,71.92,88,81,7.02,light rain
229,Luderitz,NA,-26.6481,15.1594,75.36,38,7,8.28,clear sky
230,Nemuro,JP,43.3236,145.575,37.27,91,98,8.68,overcast clouds
231,Huarmey,PE,-10.0681,-78.1522,68.65,81,91,9.15,overcast clouds
232,Vostok,RU,46.4856,135.8833,40.8,40,41,8.16,scattered clouds
233,Coquimbo,CL,-29.9533,-71.3436,56.93,82,75,3.44,broken clouds
234,Axim,GH,4.8699,-2.2405,78.49,82,100,3.15,overcast clouds
235,Yeppoon,AU,-23.1333,150.7333,74.98,79,56,10.18,broken clouds
236,San Andres,CO,12.5847,-81.7006,84.22,74,40,8.05,scattered clouds
237,Fougamou,GA,-1.2154,10.5838,74.55,98,100,1.79,light rain
238,Kiama,AU,-34.6833,150.8667,73.58,76,100,5.01,overcast clouds
239,Anchorage,US,61.2181,-149.9003,45.61,39,0,9.22,clear sky
240,Norman Wells,CA,65.282,-126.8329,28.44,31,0,8.05,clear sky
241,Hanmer Springs,NZ,-42.5167,172.8167,67.95,40,29,1.43,scattered clouds
242,Trogir,HR,43.5125,16.2517,49.78,37,0,4.61,clear sky
243,Mujiayingzi,CN,42.1167,118.7833,52.81,29,8,9.35,clear sky
244,Manokwari,ID,-0.8667,134.0833,81.93,74,96,3.89,overcast clouds
245,Bremervorde,DE,53.4833,9.1333,48.18,83,92,6.89,overcast clouds
246,Tibiri,NE,13.5627,7.0485,90.93,13,19,4.27,few clouds
247,Zaozerne,UA,45.1582,33.2787,42.91,87,98,11.86,overcast clouds
248,Mar Del Plata,AR,-38.0023,-57.5575,66.09,92,0,20.0,clear sky
249,Synya,RU,65.3718,58.0387,27.75,98,100,4.07,overcast clouds
250,Upernavik,GL,72.7868,-56.1549,10.08,95,100,5.57,light snow
251,Lagoa,PT,39.05,-27.9833,58.24,73,45,18.79,scattered clouds
252,Kalmunai,LK,7.4167,81.8167,79.84,80,89,3.29,overcast clouds
253,Tocopilla,CL,-22.092,-70.1979,63.75,69,14,3.44,few clouds
254,Kismayo,SO,-0.3582,42.5454,82.45,79,100,12.84,overcast clouds
255,Pryazha,RU,61.6926,33.6216,34.83,92,81,2.71,broken clouds
256,Raudeberg,NO,61.9875,5.1352,43.47,67,0,4.74,clear sky
257,Sisimiut,GL,66.9395,-53.6735,12.24,73,100,8.5,overcast clouds
258,Dashitou,CN,43.3067,128.5114,47.32,36,35,6.76,scattered clouds
259,Sao Joao Da Barra,BR,-21.6403,-41.0511,69.98,81,8,9.24,clear sky
260,Uvinza,TZ,-5.1036,30.3911,70.32,77,72,0.31,broken clouds
261,Joao Pinheiro,BR,-17.7425,-46.1725,75.2,50,76,6.51,broken clouds
262,Ibra,OM,22.6906,58.5334,77.79,40,16,2.77,few clouds
263,Acacoyagua,MX,15.35,-92.65,88.36,54,18,5.82,few clouds
264,Amposta,ES,40.7131,0.581,59.23,90,59,1.63,broken clouds
265,Stonewall,CA,50.1344,-97.3268,33.78,86,92,8.48,overcast clouds
266,Neyshabur,IR,36.2133,58.7958,49.12,75,100,7.38,light rain
267,Rorvik,NO,64.8621,11.2373,43.34,88,56,10.04,broken clouds
268,Robertsport,LR,6.7533,-11.3686,80.06,82,99,5.79,light rain
269,Batagay,RU,67.6333,134.6333,17.24,80,100,6.22,overcast clouds
270,Kapit,MY,2.0167,112.9333,74.52,100,100,0.43,overcast clouds
271,Barga,IT,44.0742,10.4808,46.96,71,15,1.14,few clouds
272,Hambantota,LK,6.1241,81.1185,79.32,85,70,11.41,broken clouds
273,Leningradskiy,RU,69.3833,178.4167,26.51,80,100,4.5,overcast clouds
274,Monte Patria,CL,-30.6919,-70.9467,67.19,53,1,3.98,clear sky
275,Liwale,TZ,-9.7667,37.9333,68.05,98,9,2.91,clear sky
276,Dargaville,NZ,-35.9333,173.8833,72.3,81,71,9.89,broken clouds
277,Sarakhs,IR,36.5449,61.1577,52.61,69,87,7.2,overcast clouds
278,San Policarpo,PH,12.1791,125.5072,81.19,76,7,11.97,clear sky
279,Pahrump,US,36.2083,-115.9839,85.5,5,59,5.01,broken clouds
280,Puerto Carreno,CO,6.189,-67.4859,87.78,62,20,2.3,few clouds
281,Okato,NZ,-39.2,173.8833,63.68,87,99,9.66,overcast clouds
282,Pilar,BR,-9.5972,-35.9567,76.93,87,50,3.56,light rain
283,Sosnovka,RU,56.255,51.2842,33.21,100,100,1.77,light snow
284,Yar-Sale,RU,66.8333,70.8333,0.27,98,70,6.22,broken clouds
285,Constantine,DZ,36.365,6.6147,49.48,59,69,3.74,broken clouds
286,San Patricio,US,28.017,-97.5169,88.54,57,5,18.37,clear sky
287,Coihaique,CL,-45.5752,-72.0662,53.55,54,40,4.61,scattered clouds
288,Gat,IL,31.61,34.7642,65.8,100,100,2.59,overcast clouds
289,Palmer,US,42.1584,-72.3287,49.77,46,100,4.0,overcast clouds
290,Anadyr,RU,64.75,177.4833,32.5,93,75,13.42,light shower snow
291,Limbe,CM,4.0242,9.2149,80.37,82,100,7.31,light rain
292,Norden,DE,53.6,7.2,47.95,77,0,9.57,clear sky
293,Salinopolis,BR,-0.6136,-47.3561,78.71,85,100,7.45,overcast clouds
294,Seddon,AU,-37.8068,144.8916,60.75,96,100,5.75,light intensity drizzle
295,Meulaboh,ID,4.1363,96.1285,76.33,91,97,5.23,heavy intensity rain
296,Indiana,US,40.0003,-86.2503,42.57,83,100,14.97,overcast clouds
297,Ust-Barguzin,RU,53.45,108.9833,37.99,95,100,7.45,light rain
298,Bengkulu,ID,-3.8004,102.2655,75.34,83,99,3.56,overcast clouds
299,Ostrovnoy,RU,68.0531,39.5131,36.43,100,100,9.84,overcast clouds
300,Segou,ML,13.4317,-6.2157,87.28,13,97,7.56,overcast clouds
301,Uige,AO,-7.6087,15.0613,68.27,95,76,2.46,broken clouds
302,Bafq,IR,31.6128,55.4107,59.25,26,0,1.61,clear sky
303,Goundam,ML,16.4145,-3.6708,77.88,12,2,8.61,clear sky
304,Progreso,MX,21.2833,-89.6667,89.11,72,1,16.06,clear sky
305,Stornoway,GB,58.2093,-6.3865,46.92,92,100,24.16,overcast clouds
306,Mogocha,RU,53.7333,119.7667,40.26,75,100,2.53,overcast clouds
307,Isangel,VU,-19.55,169.2667,82.27,76,100,1.05,moderate rain
308,Mount Gambier,AU,-37.8333,140.7667,46.31,93,56,4.61,broken clouds
309,Tezu,IN,27.9167,96.1667,64.6,75,63,5.14,broken clouds
310,Wenzhou,CN,27.9994,120.6668,60.08,73,99,3.13,overcast clouds
311,Dicabisagan,PH,17.0818,122.4157,77.27,83,35,3.89,scattered clouds
312,Kayerkan,RU,69.3497,87.7602,13.62,95,100,5.91,overcast clouds
313,Labrea,BR,-7.2586,-64.7981,75.38,97,94,1.92,overcast clouds
314,Iralaya,HN,15.0,-83.2333,81.7,67,2,12.06,clear sky
315,Bandar,ID,2.05,99.75,73.06,95,100,2.62,overcast clouds
316,Kiunga,PG,-6.1219,141.2906,76.08,94,100,2.19,moderate rain
317,Nacala,MZ,-14.5428,40.6728,73.44,93,57,6.55,broken clouds
318,Yambio,SS,4.5721,28.3955,69.89,93,95,3.76,overcast clouds
319,Pokrovsk,UA,48.282,37.1758,51.42,90,24,7.61,few clouds
320,Walvis Bay,NA,-22.9575,14.5053,61.09,61,16,2.57,few clouds
321,Osmena,PH,10.5208,119.9258,82.72,73,73,19.06,broken clouds
322,Porto Novo,BJ,6.4965,2.6036,78.62,84,100,0.85,overcast clouds
323,Krasnoselkup,RU,65.7,82.4667,11.84,92,82,16.33,broken clouds
324,Chapleau,CA,47.8405,-83.4034,32.09,86,100,3.44,overcast clouds
325,Parnu-Jaagupi,EE,58.6105,24.5069,39.0,95,46,4.72,scattered clouds
326,Samarai,PG,-10.6167,150.6667,81.68,81,94,11.97,heavy intensity rain
327,Longkou,CN,37.6508,120.3286,52.43,61,0,6.71,clear sky
328,Shimoda,JP,34.6667,138.95,58.1,82,100,9.35,overcast clouds
329,Verkhoyansk,RU,67.5447,133.385,20.32,80,100,3.69,overcast clouds
330,Tansen,NP,27.8673,83.5467,63.39,27,0,3.85,clear sky
331,Dingle,PH,10.9995,122.6711,78.35,85,16,8.81,few clouds
332,Esplanada,BR,-11.7961,-37.945,71.89,93,41,5.01,scattered clouds
333,Saldanha,ZA,-33.0117,17.9442,60.85,75,0,8.21,clear sky
334,Vanimo,PG,-2.6741,141.3028,81.05,81,100,2.44,overcast clouds
335,Vaitape,PF,-16.5167,-151.75,81.54,72,9,8.93,clear sky
336,Bontang,ID,0.1333,117.5,78.84,88,100,6.67,overcast clouds
337,Nouadhibou,MR,20.931,-17.0347,66.18,94,100,10.36,overcast clouds
338,Hobyo,SO,5.3505,48.5268,82.54,78,73,11.1,broken clouds
339,Port Hedland,AU,-20.3167,118.5667,77.05,44,11,8.05,few clouds
340,Waddan,LY,29.1614,16.139,58.66,58,1,9.82,clear sky
341,Orocue,CO,4.7912,-71.3354,81.86,72,95,3.47,moderate rain
342,El Alto,PE,-4.2714,-81.2147,71.26,77,92,13.11,overcast clouds
343,Barcelos,PT,41.5388,-8.6151,53.85,76,35,10.83,scattered clouds
344,Zeya,RU,53.75,127.2667,36.05,93,100,5.44,light rain
345,Poya,NC,-21.35,165.15,79.77,74,32,4.5,scattered clouds
346,Canarana,BR,-11.6847,-41.7689,69.33,84,100,10.11,overcast clouds
347,Sulangan,PH,11.1373,123.7228,80.91,75,6,9.86,clear sky
348,Kibre Mengist,ET,5.8833,38.9833,56.73,96,22,2.66,few clouds
349,Ajaccio,FR,42.0,8.9167,46.45,87,0,8.05,clear sky
350,Fountain,US,38.6822,-104.7008,62.51,35,11,13.18,few clouds
351,Wang Saphung,TH,17.301,101.7685,74.75,80,98,3.51,overcast clouds
352,Waipawa,NZ,-41.4122,175.5153,64.44,66,6,5.1,clear sky
353,Bac Lieu,VN,9.285,105.7244,81.43,74,79,14.14,broken clouds
354,Ossora,RU,59.2353,163.0719,29.57,73,100,1.92,overcast clouds
355,Nantucket,US,41.2835,-70.0995,46.02,84,100,20.74,overcast clouds
356,College,US,64.8569,-147.8028,43.23,29,3,1.99,clear sky
357,Kimbe,PG,-5.5502,150.1429,78.94,91,100,1.5,moderate rain
358,Gamba,GA,-2.65,10.0,77.45,92,100,3.36,overcast clouds
359,Camana,PE,-16.6228,-72.7111,68.27,75,13,5.79,few clouds
360,Geraldton,AU,-28.7667,114.6,61.21,51,0,14.97,clear sky
361,Buin,CL,-33.7333,-70.75,71.87,41,64,2.55,broken clouds
362,Deputatskiy,RU,69.3,139.9,5.34,96,100,3.06,overcast clouds
363,Farakka,IN,24.8167,87.9,78.93,81,0,6.04,clear sky
364,Itarema,BR,-2.9248,-39.9167,76.69,89,98,7.56,overcast clouds
365,Wau,SS,7.7029,27.9953,85.53,43,61,6.49,broken clouds
366,Constitucion,CL,-35.3333,-72.4167,55.85,91,81,9.8,broken clouds
367,Petropavlovsk-Kamchatskiy,RU,53.0452,158.6483,34.39,44,0,13.42,clear sky
368,Kon Tum,VN,14.35,108.0,64.24,91,62,2.98,broken clouds
369,Bubaque,GW,11.2833,-15.8333,75.25,75,19,9.48,few clouds
370,Sal Rei,CV,16.1833,-22.9167,69.71,80,56,13.18,broken clouds
371,Honiara,SB,-9.4333,159.95,84.87,65,88,5.44,overcast clouds
372,Haines Junction,CA,60.7522,-137.5108,33.75,27,98,5.75,overcast clouds
373,Zhigansk,RU,66.7697,123.3711,30.27,95,100,16.24,overcast clouds
374,Palembang,ID,-2.9167,104.7458,77.09,94,40,2.3,mist
375,Abbotsford,CA,49.058,-122.2526,50.88,84,100,5.75,light rain
376,Caravelas,BR,-17.7125,-39.2481,76.86,68,38,9.89,scattered clouds
377,Sao Marcos,BR,-28.9711,-51.0681,62.56,80,99,3.8,overcast clouds
378,Soyo,AO,-6.1349,12.3689,78.49,93,100,5.08,light rain
379,Dafeng,CN,23.4517,108.5881,62.42,77,100,3.74,overcast clouds
380,Krasnokholm,RU,51.5979,54.1567,53.55,64,97,5.06,overcast clouds
381,Mayo,US,38.8876,-76.5119,46.35,91,100,16.11,heavy intensity rain
382,Sawtell,AU,-30.3833,153.1,69.82,68,18,12.66,few clouds
383,Patitirion,GR,39.15,23.8667,45.37,79,100,18.52,overcast clouds
384,Taungdwingyi,MM,20.0167,95.55,82.13,50,4,8.08,clear sky
385,Lashio,MM,22.9333,97.75,64.54,82,82,2.33,broken clouds
386,Torbay,CA,47.6666,-52.7314,35.38,87,75,18.41,light rain
387,Chokwe,MZ,-24.5333,32.9833,63.81,94,94,13.71,light rain
388,Pedro Juan Caballero,PY,-22.5472,-55.7333,64.89,66,14,8.52,few clouds
389,Fereydun Kenar,IR,36.6864,52.5225,55.62,75,0,4.99,clear sky
390,Hakkari,TR,37.5833,44.1667,50.11,50,99,1.66,overcast clouds
391,Valparaiso,CL,-33.0393,-71.6273,55.47,85,100,5.75,fog
392,Bintulu,MY,3.1667,113.0333,79.21,94,40,2.3,scattered clouds
393,Coro,VE,11.4045,-69.6734,80.46,80,100,12.19,overcast clouds
394,Charters Towers,AU,-20.1,146.2667,75.07,63,3,10.33,clear sky
395,Honningsvag,NO,70.9821,25.9704,40.75,81,100,8.05,overcast clouds
396,Strezhevoy,RU,60.7333,77.5889,28.51,93,86,12.15,overcast clouds
397,Kuppam,IN,12.75,78.3667,76.08,75,59,1.05,broken clouds
398,Ciudad Bolivar,VE,8.1222,-63.5497,93.72,27,72,10.18,broken clouds
399,Mareeba,AU,-17.0,145.4333,77.43,79,100,3.67,overcast clouds
400,Mahon,ES,39.8885,4.2658,55.96,94,0,3.44,clear sky
401,Kuvandyk,RU,51.4781,57.3552,52.88,61,100,2.08,overcast clouds
402,Goderich,CA,43.7501,-81.7165,34.92,93,100,0.0,snow
403,Moron,AR,-34.6534,-58.6198,66.09,83,41,7.25,scattered clouds
404,Xining,CN,36.6167,101.7667,35.96,65,79,3.78,broken clouds
405,Dunmore East,IE,52.1514,-6.9861,43.23,71,34,4.38,scattered clouds
406,Semnan,IR,35.5729,53.3971,57.04,13,0,4.61,clear sky
407,Kargasok,RU,59.0556,80.8572,28.74,78,48,9.62,scattered clouds
408,Saint Anthony,US,45.0205,-93.218,37.92,60,93,7.0,overcast clouds
409,Manaure,CO,11.7751,-72.4445,79.48,82,41,8.84,scattered clouds
410,Passy,FR,45.9203,6.6877,51.82,75,38,5.12,scattered clouds
411,Takoradi,GH,4.8845,-1.7554,78.89,81,100,3.4,overcast clouds
412,Bud,US,39.447,-86.1758,43.68,75,91,14.43,overcast clouds
413,Nipawin,CA,53.3668,-104.0009,37.44,65,0,12.66,clear sky
414,Sungurlu,TR,40.1675,34.3739,58.23,40,27,6.42,scattered clouds
415,Porbandar,IN,21.6422,69.6093,79.61,72,1,10.42,clear sky
416,Keffi,NG,8.8486,7.8736,75.83,84,99,9.71,moderate rain
417,Buraydah,SA,26.326,43.975,72.05,10,32,6.49,scattered clouds
418,Zhenjiang,CN,32.2092,119.4342,60.8,79,46,5.12,scattered clouds
419,Vao,NC,-22.6667,167.4833,75.9,75,56,6.26,broken clouds
420,Santa Vitoria Do Palmar,BR,-33.5189,-53.3681,63.68,83,5,9.44,clear sky
421,Ginda,IN,30.6945,78.4932,58.78,29,0,8.97,clear sky
422,Skibbereen,IE,51.55,-9.2667,44.11,86,77,5.55,broken clouds
423,Yulara,AU,-25.2406,130.9889,55.24,76,7,5.75,clear sky
424,Mattru,SL,7.6244,-11.8332,76.51,89,100,2.15,light rain
425,Churapcha,RU,62.0025,132.4325,28.58,87,100,13.42,overcast clouds
426,Sao Joao Do Piaui,BR,-8.3581,-42.2467,77.23,78,100,5.37,overcast clouds
427,Katangli,RU,51.7102,143.2326,30.49,85,63,9.22,broken clouds
428,Belmonte,BR,-15.8631,-38.8828,76.15,82,94,11.88,overcast clouds
429,Nizhniy Kuranakh,RU,58.8353,125.4869,30.33,80,93,12.66,overcast clouds
430,Half Moon Bay,US,37.4636,-122.4286,73.42,50,100,11.54,overcast clouds
431,Teguise,ES,29.0605,-13.564,62.82,77,0,26.46,clear sky
432,Antibes,FR,43.5624,7.1278,54.88,73,0,5.75,clear sky
433,Anloga,GH,5.7947,0.8973,79.59,80,100,7.36,overcast clouds
434,Okhotsk,RU,59.3833,143.3,25.54,90,100,10.76,overcast clouds
435,Avera,US,33.194,-82.5271,63.91,75,81,12.19,broken clouds
436,Taltal,CL,-25.4,-70.4833,60.33,82,21,1.61,few clouds
437,Broken Hill,AU,-31.95,141.4333,53.31,94,75,20.71,broken clouds
438,Pathein,MM,16.7833,94.7333,78.15,88,16,3.87,few clouds
439,Sarangani,PH,5.4033,125.4636,82.38,78,55,17.81,broken clouds
440,Cairns,AU,-16.9167,145.7667,82.06,82,75,11.5,broken clouds
441,Tucumcari,US,35.1717,-103.725,73.94,22,98,18.86,overcast clouds
442,Johor Bahru,MY,1.4655,103.7578,80.51,90,0,1.14,clear sky
443,Wajir,KE,1.7471,40.0573,78.53,75,61,10.71,broken clouds
444,Joshimath,IN,30.5667,79.5667,56.48,40,0,8.19,clear sky
445,Krasnoznamensk,RU,55.5994,37.0386,41.09,56,0,11.18,clear sky
446,Leh,IN,34.1667,77.5833,36.48,47,0,3.42,clear sky
447,Arroyo,ES,41.6096,-4.7969,51.15,73,0,18.41,clear sky
448,Gigmoto,PH,13.7796,124.39,79.16,81,30,5.93,scattered clouds
449,Eugene,US,44.0521,-123.0867,48.74,90,100,11.99,overcast clouds
450,Bakchar,RU,57.0186,82.0711,28.06,70,0,3.18,clear sky
451,Kayes,ML,14.0,-11.0,94.75,10,50,9.91,scattered clouds
452,North Bend,US,43.4065,-124.2243,47.25,96,100,16.11,overcast clouds
453,Camden,US,39.7835,-74.9663,45.9,81,100,3.0,overcast clouds
454,Fairbanks,US,64.8378,-147.7164,43.25,27,3,3.0,clear sky
455,Kehtna,EE,58.9303,24.8781,37.27,93,34,4.52,scattered clouds
456,Terney,RU,45.0503,136.6092,45.81,41,28,3.71,scattered clouds
457,Katsuura,JP,35.1333,140.3,58.78,70,100,12.37,overcast clouds
458,Vardo,NO,70.3705,31.1107,40.8,92,100,18.63,overcast clouds
459,Fangshan,CN,39.6983,115.9925,60.39,28,0,1.54,clear sky
460,Trelew,AR,-43.249,-65.3051,62.64,53,4,8.46,clear sky
461,Tsilna,RU,54.5953,48.1414,38.75,92,100,7.36,light rain
462,Akyab,MM,20.15,92.9,80.06,86,11,3.15,few clouds
463,Nagold,DE,48.5498,8.7237,45.79,85,5,2.51,clear sky
464,Burnie,AU,-41.0667,145.9167,56.91,89,100,4.68,light rain
465,Atar,MR,20.5169,-13.0499,86.67,13,89,2.73,overcast clouds
466,Dosso,NE,13.049,3.1937,87.78,12,91,6.98,overcast clouds
467,Aksarka,RU,66.5606,67.7975,8.94,98,94,3.31,overcast clouds
468,Pennagaram,IN,12.1333,77.9,78.4,67,40,1.03,scattered clouds
469,Clyde River,CA,70.4692,-68.5914,-10.97,77,75,2.3,broken clouds
470,Cusuna,HN,15.85,-85.2333,80.56,67,11,7.56,few clouds
471,Erenhot,CN,43.6475,111.9767,47.66,28,0,15.93,clear sky
472,Guerrero Negro,MX,27.9769,-114.0611,67.84,64,16,20.4,few clouds
473,Moree,AU,-29.4667,149.85,66.22,72,3,16.11,clear sky
474,Emba,KZ,48.8264,58.1442,54.3,50,93,4.34,overcast clouds
475,Lakota,CI,5.8528,-5.6883,70.3,96,100,2.26,overcast clouds
476,Denpasar,ID,-8.65,115.2167,78.46,94,75,3.44,broken clouds
477,Dudinka,RU,69.4058,86.1778,16.56,96,100,3.53,light snow
478,Union,US,40.6334,-74.2663,47.91,71,100,10.36,light rain
479,Port Lincoln,AU,-34.7333,135.8667,59.72,60,11,8.03,few clouds
480,Odda,NO,60.0691,6.5457,48.78,58,4,6.44,clear sky
481,Loukhi,RU,66.0764,33.0381,36.37,100,100,5.91,overcast clouds
482,Kruisfontein,ZA,-34.0033,24.7314,54.88,92,11,1.7,few clouds
483,Shelton,US,41.3165,-73.0932,47.21,69,100,13.8,overcast clouds
484,Kingsport,US,36.5484,-82.5618,50.23,84,100,5.99,overcast clouds
485,Orlik,RU,52.5178,99.825,36.86,64,93,6.98,overcast clouds
486,Kondinskoye,RU,59.6481,67.41,25.25,84,23,6.51,few clouds
487,Polillo,PH,14.7122,121.9392,78.94,76,11,9.89,few clouds
488,Sola,VU,-13.8833,167.55,82.29,76,99,12.39,moderate rain
489,Palmerston,AU,-12.486,130.9833,82.89,88,20,4.61,few clouds
490,Olinda,BR,-8.0089,-34.8553,83.93,61,20,9.22,few clouds
491,Devarkonda,IN,16.7,78.9333,84.92,46,27,3.6,scattered clouds
492,Paulo Ramos,BR,-4.2167,-45.1833,74.95,97,100,2.91,overcast clouds
493,Dalvik,IS,65.9702,-18.5286,33.73,97,100,7.05,overcast clouds
494,Myaundzha,RU,63.0494,147.1858,10.81,92,98,4.79,overcast clouds
495,Vilyuysk,RU,63.7553,121.6247,23.9,93,100,9.19,light snow
496,Paso De Carrasco,UY,-34.8603,-56.0522,66.34,77,0,8.05,clear sky
497,Evensk,RU,61.95,159.2333,26.87,93,100,4.38,overcast clouds
498,Susanville,US,40.4163,-120.653,59.92,29,33,11.01,scattered clouds
499,San Eugenio,PH,16.3598,120.357,78.94,78,5,9.98,clear sky
500,Pisco,PE,-13.7,-76.2167,69.85,73,0,14.97,clear sky
501,Alanya,TR,36.5438,31.9998,60.87,92,74,2.19,broken clouds
502,Ita,PY,-25.4833,-57.35,72.82,86,2,4.41,clear sky
503,Alice Springs,AU,-23.7,133.8833,63.95,68,40,10.36,scattered clouds
504,Takab,IR,36.4009,47.1133,49.86,33,20,2.62,few clouds
505,Zhaotong,CN,27.3167,103.7167,38.17,94,99,3.44,overcast clouds
506,Angoche,MZ,-16.2325,39.9086,76.8,77,2,6.29,clear sky
507,Ponta Do Sol,PT,32.6667,-17.1,63.23,63,66,13.6,broken clouds
508,Valdivia,CL,-39.8142,-73.2459,55.49,94,50,2.19,scattered clouds
509,Kabalo,CD,-6.05,26.9167,71.28,87,43,3.87,scattered clouds
510,The Valley,AI,18.217,-63.0578,80.46,76,76,23.82,broken clouds
511,Paihia,NZ,-35.2822,174.0912,70.32,96,69,9.22,broken clouds
512,Jiaojiang,CN,28.6803,121.4428,59.0,82,100,3.0,overcast clouds
513,Hamilton,US,39.1834,-84.5333,44.24,80,100,18.41,overcast clouds
514,Vanavara,RU,60.34,102.2797,15.39,78,63,10.33,broken clouds
515,Saint-Francois,FR,46.4154,3.9054,48.42,79,0,0.0,clear sky
516,Thaba-Tseka,LS,-29.522,28.6084,42.15,91,6,2.77,clear sky
517,Korla,CN,41.7597,86.1469,55.38,16,8,2.24,clear sky
518,Emerald,AU,-23.5333,148.1667,73.35,73,0,6.91,clear sky
519,Liancheng,CN,24.0519,105.075,51.76,81,100,1.92,overcast clouds
520,Orsha,BY,54.5153,30.4053,39.16,89,100,10.02,light rain
521,Zarubino,RU,42.63,131.0922,43.34,68,0,5.01,clear sky
522,Lazaro Cardenas,MX,17.9583,-102.2,82.09,58,72,7.92,broken clouds
523,Shadegan,IR,30.6497,48.6647,64.35,11,2,9.51,clear sky
524,Svirstroy,RU,60.7999,33.7248,34.23,98,99,2.95,overcast clouds
525,Gulbarga,IN,17.3333,76.8333,86.49,41,43,12.5,scattered clouds
526,Saint-Augustin,CA,51.226,-58.6502,25.52,61,3,17.2,clear sky
527,Meadow Lake,US,34.8014,-106.5436,81.73,8,90,17.36,overcast clouds
528,Piranhas,BR,-16.4269,-51.8222,74.73,65,5,2.59,clear sky
529,Nola,IT,40.922,14.5329,52.93,72,77,3.83,broken clouds
530,North Myrtle Beach,US,33.816,-78.68,56.1,93,100,13.38,overcast clouds
531,Ketchikan,US,55.3422,-131.6461,52.16,45,100,1.61,overcast clouds
532,Samfya,ZM,-11.3649,29.5565,64.8,93,7,7.23,clear sky
533,Gersthofen,DE,48.4167,10.8833,40.6,82,35,1.14,scattered clouds
534,Beruwala,LK,6.4788,79.9828,80.28,82,95,6.38,overcast clouds
535,Manhattan,US,40.7834,-73.9662,47.62,57,100,11.99,light rain
536,Ola,RU,59.5833,151.2833,25.14,87,100,6.46,overcast clouds
537,Kendal,GB,54.3268,-2.7476,43.61,82,55,2.33,broken clouds
538,Carballo,ES,43.213,-8.691,51.78,85,88,7.87,overcast clouds
539,Belyy Yar,RU,53.6039,91.3903,36.86,93,40,11.18,light shower sleet
540,Gizo,SB,-8.103,156.8419,81.66,74,100,8.75,overcast clouds
541,Dodge City,US,37.7528,-100.0171,61.23,34,0,5.99,clear sky
542,Chandil,IN,22.9667,86.05,81.59,52,0,3.44,clear sky
543,Sterling,US,39.0062,-77.4286,46.58,94,100,9.22,light intensity drizzle
544,Puerto Escondido,MX,15.85,-97.0667,85.98,60,38,10.33,scattered clouds
545,Terme,TR,41.2092,36.9739,50.29,89,82,3.29,light rain
546,Semey,KZ,50.4111,80.2275,51.44,72,100,18.66,light rain
547,Pomabamba,PE,-8.8333,-77.4667,55.74,68,79,2.91,light rain
548,Yatou,CN,37.15,122.3833,55.87,43,1,4.12,clear sky
549,Wanaka,NZ,-44.7,169.15,57.11,71,100,2.64,overcast clouds
550,Porosozero,RU,62.7191,32.727,33.49,98,100,2.39,overcast clouds
551,Tieli,CN,46.95,128.05,48.96,32,34,11.88,scattered clouds
552,Zhanakorgan,KZ,43.9098,67.2495,68.94,38,100,17.52,overcast clouds
553,Maniitsoq,GL,65.4167,-52.9,11.55,81,86,13.71,overcast clouds
554,Severnoye,RU,56.3491,78.3619,30.72,76,18,4.47,few clouds
555,Vilhena,BR,-12.7406,-60.1458,77.22,83,0,4.61,clear sky
556,Frontera,MX,26.9333,-101.45,90.32,39,87,8.99,overcast clouds
557,Port Macquarie,AU,-31.4333,152.9167,68.9,75,71,8.05,broken clouds
558,Yushu,CN,44.8,126.5333,53.65,26,16,17.07,few clouds
559,Hami,CN,42.8,93.45,54.73,14,1,4.38,clear sky
560,Marsa Matruh,EG,31.3525,27.2453,57.4,88,40,0.0,scattered clouds
561,Khorramshahr,IR,30.4397,48.1664,69.75,28,0,4.61,clear sky
562,Salalah,OM,17.0151,54.0924,77.41,85,3,0.51,clear sky
563,Krasnyy Chikoy,RU,50.3643,108.7512,44.92,55,51,3.83,broken clouds
564,Miyako,JP,39.6367,141.9525,47.07,71,77,12.24,broken clouds
565,Duyun,CN,26.2667,107.5167,52.68,90,100,3.67,overcast clouds
566,Yima,CN,34.7381,111.8839,52.77,44,1,4.92,clear sky
567,Shahrud,IR,36.4182,54.9763,47.91,47,0,4.34,clear sky
568,Acapulco,MX,16.8634,-99.8901,84.79,53,12,10.8,few clouds
569,Tavricheskoye,RU,54.5851,73.6395,30.11,64,46,5.75,scattered clouds
570,Yashkul,RU,46.1711,45.3435,56.3,54,23,20.42,few clouds
571,Champerico,GT,14.3,-91.9167,91.94,68,12,12.86,few clouds
572,Bambous Virieux,MU,-20.3428,57.7575,79.05,89,40,8.05,light rain
573,Camopi,GF,3.1655,-52.3158,73.2,99,100,2.57,moderate rain
574,Karaton,ID,-6.3424,106.1045,75.13,93,100,1.03,overcast clouds
575,Willmar,US,45.1219,-95.0433,35.62,66,75,20.71,broken clouds
576,Fethiye,TR,36.6217,29.1164,57.07,88,7,2.06,clear sky
577,Churachandpur,IN,24.3333,93.6667,61.75,91,15,2.17,few clouds
578,Morant Bay,JM,17.8815,-76.4093,80.71,87,66,6.71,broken clouds
579,Kandava,LV,57.0409,22.7747,37.38,84,90,5.7,overcast clouds
580,Waraseoni,IN,21.75,80.0333,86.18,17,66,4.03,broken clouds
581,Gacko,BA,43.1672,18.5353,29.3,89,24,4.88,few clouds
582,Jaten,ID,-7.5772,110.8975,76.66,91,100,1.45,overcast clouds
583,Olga,RU,43.7444,135.2892,46.83,34,22,3.2,few clouds
584,Clermont,FR,49.5,2.4167,51.71,78,100,7.9,overcast clouds
585,Pangai,TO,-19.8,-174.35,81.3,78,64,16.35,light rain
586,Timaru,NZ,-44.4,171.25,59.07,95,100,2.35,overcast clouds
587,Bereda,ES,43.2686,-7.5406,48.42,100,100,3.2,light rain
588,Flinders,AU,-34.5833,150.8552,73.38,80,100,5.99,overcast clouds
589,Hualmay,PE,-11.0964,-77.6139,67.73,82,89,9.44,overcast clouds
590,Jadu,LY,31.953,12.0261,53.01,38,1,2.37,clear sky
591,Nabire,ID,-3.3667,135.4833,79.56,79,100,2.35,overcast clouds
592,Uglegorsk,RU,49.0833,142.0333,36.09,78,40,8.99,scattered clouds
593,Lipari,IT,38.4674,14.954,55.2,65,4,10.65,clear sky
594,Harrison,US,30.4091,-89.0436,68.05,69,1,12.15,clear sky
595,Singaparna,ID,-7.3515,108.111,71.92,94,100,2.71,overcast clouds
596,Manggar,ID,-2.8833,108.2667,78.4,86,100,5.59,overcast clouds
597,Camabatela,AO,-8.1881,15.375,64.0,95,99,1.95,overcast clouds
598,Deer Lake,CA,49.1667,-57.4316,30.78,81,27,6.87,scattered clouds
599,Kozhva,RU,65.1073,57.0459,27.77,98,100,4.76,overcast clouds
600,Rio Bonito,BR,-22.7086,-42.6097,64.13,92,13,2.01,few clouds
601,Jiaozuo,CN,35.2397,113.2331,56.64,44,0,4.38,clear sky
602,Marawi,PH,7.9986,124.2928,71.6,92,88,1.12,overcast clouds
603,Moerai,PF,-22.4333,-151.3333,78.82,70,93,6.78,overcast clouds
604,Lebyazhye,RU,55.2689,66.4947,40.51,62,51,7.74,broken clouds
605,Cam Ranh,VN,11.9214,109.1591,75.16,78,20,4.61,few clouds
606,Ihosy,MG,-22.4,46.1167,68.59,88,79,6.38,broken clouds
607,Lata,PT,40.1629,-8.3327,54.07,85,56,6.78,broken clouds
608,Dera Ghazi Khan,PK,30.0561,70.6348,83.07,25,7,6.55,clear sky
609,Puerto Santander,CO,8.3636,-72.4063,76.59,82,98,1.54,overcast clouds
610,Shingu,JP,33.7333,135.9833,61.77,40,99,5.01,overcast clouds
611,Omsukchan,RU,62.5333,155.8,21.65,90,95,5.91,overcast clouds
612,Petlawad,IN,23.0,74.8,79.93,39,0,10.02,clear sky
613,Nekhayevskiy,RU,50.4106,41.7561,53.74,63,85,14.79,overcast clouds
614,Lavrentiya,RU,65.5833,-171.0,30.16,94,100,8.66,light snow
615,Bathsheba,BB,13.2167,-59.5167,78.69,77,92,19.26,overcast clouds
616,Gorom-Gorom,BF,14.4439,-0.2361,85.39,11,59,7.99,broken clouds
617,Quatre Cocos,MU,-20.2078,57.7625,78.1,87,37,9.44,light rain
618,Cobh,IE,51.8572,-8.2992,43.84,88,40,4.61,scattered clouds
619,Esperanza,DO,19.5847,-70.9849,71.87,82,100,8.55,overcast clouds
620,Daru,PG,-9.0763,143.2092,77.22,88,93,6.55,overcast clouds
621,Along,IN,28.1667,94.7667,63.0,90,47,1.72,scattered clouds
622,Gushikawa,JP,26.3544,127.8686,69.39,78,100,5.75,overcast clouds
623,Road Town,VG,18.4167,-64.6167,78.64,76,76,21.12,broken clouds
624,Bousso,TD,10.4795,16.7117,77.74,66,100,6.98,overcast clouds
625,Antofagasta,CL,-23.65,-70.4,59.95,85,2,2.8,clear sky
626,Port Hardy,CA,50.6996,-127.4199,40.26,93,100,1.92,light rain
627,Jacareacanga,BR,-6.2222,-57.7528,74.59,97,87,1.63,overcast clouds
628,Aksu,CN,41.1231,80.2644,56.1,17,6,1.9,clear sky
629,Ambanja,MG,-13.6833,48.45,73.53,93,51,3.53,broken clouds
630,Ikare,NG,7.4913,5.2322,73.71,94,100,1.54,overcast clouds
631,Watsa,CD,3.0372,29.5355,64.02,98,67,2.62,moderate rain
632,Alyangula,AU,-13.8483,136.4192,82.65,75,67,10.45,broken clouds
633,Mzimba,MW,-11.9,33.6,61.45,97,25,5.41,scattered clouds
634,Hofn,IS,64.2539,-15.2082,43.07,81,100,10.74,light rain
635,Namatanai,PG,-3.6667,152.4333,84.6,67,96,10.58,overcast clouds
636,Agadez,NE,19.75,10.25,75.06,19,34,11.07,scattered clouds
637,Shubarkuduk,KZ,49.1447,56.4872,57.07,47,89,5.06,overcast clouds
638,Necochea,AR,-38.5473,-58.7368,61.34,81,88,10.69,overcast clouds
639,Salsomaggiore Terme,IT,44.8148,9.9796,45.91,74,11,2.95,few clouds
640,Byron Bay,AU,-28.65,153.6167,69.94,68,5,1.81,clear sky
641,Cividale Del Friuli,IT,46.0931,13.4275,53.28,60,98,2.08,overcast clouds
642,Sao Borja,BR,-28.6606,-56.0044,63.46,78,0,1.28,clear sky
643,Kargil,IN,34.5667,76.1,31.41,54,5,3.78,clear sky
644,Kusu,JP,33.2831,131.1514,58.28,39,98,1.79,overcast clouds
645,Rhede,DE,51.8333,6.7,54.36,69,30,7.7,scattered clouds
646,Korgen,NO,66.0771,13.8153,37.18,96,100,5.28,overcast clouds
647,Aden,YE,12.7794,45.0367,82.02,82,18,16.62,few clouds
648,Corner Brook,CA,48.9667,-57.9484,35.76,85,54,7.76,broken clouds
649,Largo,US,27.9095,-82.7873,82.38,65,0,13.0,clear sky
650,Dandong,CN,40.1292,124.3947,55.6,36,0,3.53,clear sky
651,Naze,JP,28.3667,129.4833,64.04,74,100,11.34,overcast clouds
652,Bodden Town,KY,19.2833,-81.25,82.99,67,1,7.0,clear sky
653,Anzio,IT,41.4853,12.6179,54.52,83,61,5.73,broken clouds
654,Mission,US,26.2159,-98.3253,87.98,59,42,3.0,scattered clouds
655,Nishihara,JP,26.1842,127.7558,69.46,83,75,5.75,broken clouds
656,Myitkyina,MM,25.3833,97.4,63.46,79,98,3.13,overcast clouds
657,Maragogi,BR,-9.0122,-35.2225,78.21,81,48,7.63,scattered clouds
658,Cockburn Town,TC,21.4612,-71.1419,77.86,81,46,23.55,scattered clouds
659,Holbaek,DK,55.7167,11.7167,45.28,35,52,1.01,broken clouds
660,La Plata,AR,-34.9215,-57.9545,66.04,81,5,8.39,clear sky
661,Shestakovo,RU,56.4915,103.96,27.82,78,91,8.03,overcast clouds
662,Aykhal,RU,66.0,111.5,6.55,95,100,23.42,overcast clouds
663,Iskateley,RU,67.6803,53.1512,29.91,98,100,12.71,light snow
664,Fairview,US,40.8126,-73.999,47.23,56,100,5.99,moderate rain
665,Mantua,IT,45.1667,10.7833,52.84,62,45,5.01,scattered clouds
666,Autazes,BR,-3.5797,-59.1306,75.74,97,49,0.67,scattered clouds
667,Tura,IN,25.5198,90.2201,67.86,90,0,3.4,clear sky
668,Grindavik,IS,63.8424,-22.4338,43.27,75,75,11.5,broken clouds
669,Igrim,RU,63.1906,64.4162,29.7,95,47,6.6,scattered clouds
670,Osakarovka,KZ,50.565,72.5692,42.28,77,87,10.56,overcast clouds
671,Gao,ML,16.6362,1.637,80.38,12,37,7.67,scattered clouds
672,Conde,BR,-7.2597,-34.9075,76.71,82,71,8.79,broken clouds
673,Veraval,IN,20.9,70.3667,79.38,71,0,14.83,clear sky
674,Morris,US,40.8334,-74.5329,44.82,73,100,16.11,moderate rain
675,Qaqortoq,GL,60.7167,-46.0333,33.75,79,100,3.49,light snow
676,Salekhard,RU,66.53,66.6019,8.42,97,79,4.47,broken clouds
677,Rafaela,AR,-31.2503,-61.4867,64.99,66,0,7.07,clear sky
678,Hoi An,VN,15.8794,108.335,76.96,89,62,7.11,broken clouds
679,Saint-Leu,RE,-21.15,55.2833,77.83,82,2,2.42,clear sky
680,Cap Malheureux,MU,-19.9842,57.6142,78.48,88,56,14.07,broken clouds
681,Ginir,ET,7.1333,40.7,59.22,79,9,3.71,clear sky
682,Pontes E Lacerda,BR,-15.2261,-59.3353,70.48,81,40,3.44,scattered clouds
683,Taikang,CN,46.8333,124.4167,55.51,38,29,12.24,scattered clouds
684,Oranjemund,NA,-28.55,16.4333,70.14,41,0,5.84,clear sky
